City_ID,City,Country,Max Temp,Current Description,Lat,Lng,Hotel Name
0,Lumphat,KH,72.05,overcast clouds,13.4878,106.9816,Lumphat Homestay​ &​lake​side
1,Vaini,TO,75.36,few clouds,-21.2,-175.2,Keleti Beach Resort
3,Rikitea,PF,72.3,broken clouds,-23.1203,-134.9692,People ThankYou
8,Kavieng,PG,82.67,broken clouds,-2.5744,150.7967,Nusa Island Retreat
11,Havelock,US,75.92,overcast clouds,34.8791,-76.9013,Sherwood Motel
13,Avarua,CK,75.25,clear sky,-21.2078,-159.775,Paradise Inn
14,Bathsheba,BB,83.01,few clouds,13.2167,-59.5167,Atlantis Hotel
18,Guerrero Negro,MX,77.95,broken clouds,27.9769,-114.0611,"Casa Laguna, Bed & Breakfast"
22,Thompson,CA,78.96,few clouds,55.7435,-97.8558,Burntwood Hotel
23,Murud,IN,77.36,overcast clouds,18.3258,72.965,On Point Plaza
25,Wajima,JP,77.58,overcast clouds,37.4,136.9,Wajiima Onsen Yashio
30,Albany,US,86.88,scattered clouds,42.6001,-73.9662,
34,Ugoofaaru,MV,81.39,overcast clouds,5.6667,73.0,Ungoofaaru Inn
35,Butaritari,KI,80.98,clear sky,3.0707,172.7902,Isles Sunset Lodge
37,Verkhniy Baskunchak,RU,74.91,overcast clouds,48.2256,46.7217,Kombat
40,Cayenne,GF,78.84,clear sky,4.9333,-52.3333,Hôtel Le Dronmi
41,Mahebourg,MU,71.89,broken clouds,-20.4081,57.7,Shandrani Beachcomber Resort & Spa
44,Hamilton,US,85.05,scattered clouds,39.1834,-84.5333,Six Acres Bed & Breakfast
47,Hasaki,JP,75.29,overcast clouds,35.7333,140.8333,Inubosaki Kanko Hotel
50,Do Gonbadan,IR,86.09,few clouds,30.3586,50.7981,مسافرخانه شادی
51,Shingu,JP,85.55,overcast clouds,33.7333,135.9833,Shingu UI Hotel
52,Dhanera,IN,77.41,broken clouds,24.5167,72.0167,પ્રહલાદભાઈ. એસ. માળી
53,Ponta Do Sol,PT,70.43,clear sky,32.6667,-17.1,Hotel do Campo
54,Yellowknife,CA,79.32,smoke,62.456,-114.3525,The Explorer Hotel
56,Kapaa,US,85.48,scattered clouds,22.0752,-159.319,Sheraton Kauai Coconut Beach Resort
59,Tanabe,JP,84.36,overcast clouds,33.7333,135.3667,美吉屋旅館
61,Dondo,MZ,76.51,clear sky,-19.6094,34.7431,Pensao Casual
62,Sibolga,ID,75.63,overcast clouds,1.7427,98.7792,Hotel Syariah CN Darussalam
63,Atuona,PF,76.53,few clouds,-9.8,-139.0333,Hôtel Hiva Oa Hanakee Lodge
64,Lakatoro,VU,80.62,few clouds,-16.0999,167.4164,Lakatoro Palm Lodge
65,Isangel,VU,80.71,light intensity drizzle,-19.55,169.2667,Tanna Lodge
66,Morondava,MG,72.73,clear sky,-20.2833,44.2833,La Case Bambou
70,Saint-Marc,HT,85.66,broken clouds,19.1082,-72.6938,Maguana Hotel
74,La Macarena,CO,77.41,overcast clouds,2.1837,-73.7849,Casa Hotel Real
76,Namatanai,PG,82.09,broken clouds,-3.6667,152.4333,Seagulls Inn Namatani
77,Lazaro Cardenas,MX,85.8,few clouds,17.9583,-102.2,HOTEL QUINTA ANTIGUA
85,Praia,CV,79.34,broken clouds,14.9215,-23.5087,LT Aparthotel
86,Yantzaza,EC,70.52,moderate rain,-3.8278,-78.7594,HOTEL ALEJANDRO YANTZAZA
87,Hami,CN,74.86,clear sky,42.8,93.45,Laoyutang Resort
88,Fare,PF,79.0,overcast clouds,-16.7,-151.0167,Maitai Lapita Village Huahine
90,Puerto Escondido,MX,86.83,broken clouds,15.85,-97.0667,Aldea del Bazar Hotel and Spa
91,Cascais,PT,81.75,clear sky,38.6979,-9.4215,Hotel Vila Galé Cascais
92,Lagoa,PT,71.19,clear sky,39.05,-27.9833,Casa Das Faias
94,Puerto Ayora,EC,80.56,overcast clouds,-0.7393,-90.3518,Finch Bay Galapagos Hotel
98,Neiafu,TO,77.68,scattered clouds,-18.65,-173.9833,Mystic Sands Beachfront Accommodation
100,Jamestown,US,80.94,clear sky,42.097,-79.2353,Hampton Inn & Suites Jamestown
101,Praia Da Vitoria,PT,71.85,few clouds,38.7333,-27.0667,Hotel Branco I
104,Ewa Beach,US,89.55,broken clouds,21.3156,-158.0072,Base Lodging
105,Buala,SB,82.76,light rain,-8.145,159.5921,Maringe Lagoon Lodge
109,Acapulco,MX,87.62,broken clouds,16.8634,-99.8901,HS Hotsson Smart Acapulco
110,Sabha,LY,87.49,clear sky,27.0377,14.4283,محطة ام الارانب -سبها مواصلات
113,Sao Felix Do Xingu,BR,81.25,few clouds,-6.6447,-51.995,Rio Xingu Camping
121,Yumen,CN,70.77,broken clouds,40.2833,97.2,
123,San Policarpo,PH,78.6,overcast clouds,12.1791,125.5072,Agapita M. Nicart
124,Nouadhibou,MR,73.38,broken clouds,20.931,-17.0347,El Medina
125,Jaisalmer,IN,78.64,overcast clouds,26.9147,70.9181,Hotel Fifu
127,Mangai,CD,74.26,scattered clouds,-4.05,19.5333,
130,Arroyo Grande,US,85.05,clear sky,35.1186,-120.5907,Pismo View Inn
131,Bethel,US,86.65,broken clouds,41.3712,-73.414,Courtyard by Marriott Danbury
134,Tamandare,BR,72.84,clear sky,-8.7597,-35.1047,Pousada 100 Passos
136,Caravelas,BR,71.51,clear sky,-17.7125,-39.2481,Pousada dos Navegantes
137,Cabo San Lucas,MX,89.62,scattered clouds,22.8909,-109.9124,Hotel Tesoro Los Cabos
141,Tiruttani,IN,81.28,overcast clouds,13.177,79.6128,Karthikeyan Cottages
142,Pervomayskaya,RU,73.2,clear sky,43.4033,45.5261,Sotyy
144,Ribeira Grande,PT,72.37,clear sky,38.5167,-28.7,Quinta da Meia Eira
146,Ipu,BR,81.7,scattered clouds,-4.3222,-40.7108,Our hostel Corner
151,Kashi,CN,76.21,broken clouds,39.4547,75.9797,帕米尔青年旅舍
154,Ramat Yishay,IL,76.12,clear sky,32.7006,35.1797,Zimmer & Spa Kesem Hamaga
156,Fortuna,US,72.09,scattered clouds,40.5982,-124.1573,Super 8 by Wyndham Fortuna
159,Dwarka,IN,80.53,overcast clouds,22.2394,68.9678,Hotel Narayan Avezika Comfort
161,Tutoia,BR,79.03,broken clouds,-2.7619,-42.2744,Pousada Guará's
162,Victoria,HK,82.45,overcast clouds,22.2855,114.1577,Mini Central
163,Salalah,OM,75.29,light intensity drizzle,17.0151,54.0924,"HAMDAN PLAZA HOTEL SALALAH, an HTG Hotel"
165,Vila Real,PT,74.75,clear sky,41.3006,-7.7441,Hotel Mira Corgo
166,Neftcala,AZ,78.66,clear sky,39.3742,49.2472,Otel restoran
168,Paka,MY,76.98,overcast clouds,4.6374,103.4368,RUMBIA RESORT VILLA Paka Terengganu
171,Mount Pleasant,US,82.54,thunderstorm,32.7941,-79.8626,Best Western Patriots Point
172,Haapiti,PF,82.13,overcast clouds,-17.5667,-149.8667,Linareva Moorea Beach Resort
173,Kathu,TH,85.69,overcast clouds,7.9178,98.3332,Novotel Phuket Resort
178,Oistins,BB,82.49,few clouds,13.0667,-59.5333,Butterfly Beach Hotel
180,Aksu,CN,72.37,clear sky,41.1231,80.2644,Pudong Holiday Hotel
181,Broome,US,80.37,scattered clouds,42.2506,-75.833,Chenango Valley State Park
183,Nagato,JP,83.62,overcast clouds,34.3833,131.2,いそう庵
187,Laguna De Perlas,NI,84.29,overcast clouds,12.3429,-83.6712,Hotel Best View
190,Biled,RO,82.58,overcast clouds,45.8864,20.9589,Hotel Angelis
191,Tongren,CN,81.14,overcast clouds,27.7172,109.1853,Fanjing Mountain International Conference Center
197,Trat,TH,83.88,broken clouds,12.5,102.5,สวนหนิง-อัศ
200,Yenagoa,NG,73.76,overcast clouds,4.9247,6.2642,Aridolf Resort Wellness and Spa
203,Redmond,US,87.06,broken clouds,47.674,-122.1215,Seattle Marriott Redmond
206,Oussouye,SN,78.89,overcast clouds,12.485,-16.5469,Auberge du Routard
210,Yarada,IN,82.94,light rain,17.65,83.2667,Yarada Jungle Beach Resorts
211,Belmonte,BR,71.85,clear sky,-15.8631,-38.8828,Pousada Monte Carmelo O Pão
220,Pacific Grove,US,83.25,broken clouds,36.6177,-121.9166,Lovers Point Inn
221,San Cristobal,VE,80.78,clear sky,7.7669,-72.225,Pirineos
222,Carupano,VE,80.2,scattered clouds,10.6678,-63.2585,Hotel La dorada
224,Yinchuan,CN,72.16,clear sky,38.4681,106.2731,JJ Inns - Yinchuan New Moon Square Branch
226,Jipijapa,EC,74.7,broken clouds,-1.3333,-80.5833,Hotel Los Ceibos Jipijapa
229,Marquette,US,70.41,broken clouds,46.5333,-87.6335,Al Quaal Lodge
231,Wagar,SD,80.22,overcast clouds,16.1525,36.2032,
233,Port Hawkesbury,CA,72.79,clear sky,45.6169,-61.3485,MacKenzie House Tourist Home B&B
234,Hithadhoo,MV,80.6,overcast clouds,-0.6,73.0833,Scoop Guest House
235,Padang,ID,75.25,overcast clouds,-0.9492,100.3543,Mercure Padang
239,Carauari,BR,74.97,moderate rain,-4.8828,-66.8958,Hotel Fellip
242,Bairiki,KI,80.38,clear sky,1.3292,172.9752,Tarawa Boutique Hotel
243,Sao Jose Da Coroa Grande,BR,73.0,clear sky,-8.8978,-35.1478,Crôa Mares Hotel
244,Lucea,JM,85.86,overcast clouds,18.451,-78.1736,Grand Palladium Jamaica Resort & Spa
245,Bissau,GW,77.11,thunderstorm with light rain,11.8636,-15.5977,Hotel Ancar
246,Hobyo,SO,76.32,overcast clouds,5.3505,48.5268,Halane Hotel and Restaurent
248,Caibarien,CU,87.12,clear sky,22.5206,-79.4669,La Nena
250,Along,IN,74.5,overcast clouds,28.1667,94.7667,Hotel West
251,Katsuura,JP,77.02,overcast clouds,35.1333,140.3,Katsuura Hotel Mikazuki
252,Iranshahr,IR,89.33,broken clouds,27.2025,60.6848,نیک سرشت
254,Yatou,CN,73.4,broken clouds,37.15,122.3833,GreenTree Hotel Rongcheng Bus Station
256,Saint-Georges,GD,83.88,few clouds,12.0564,-61.7485,Radisson Grenada Beach Resort
260,Coruripe,BR,71.55,clear sky,-10.1256,-36.1756,Pousada e Hotel Litoral Sul
264,Half Moon Bay,US,89.58,mist,37.4636,-122.4286,"The Ritz-Carlton, Half Moon Bay"
265,Gushikawa,JP,85.23,clear sky,26.3544,127.8686,Kirari Guest House
266,Golden,US,82.36,overcast clouds,39.7555,-105.2211,"The Golden Hotel, Ascend Hotel Collection"
268,Gigmoto,PH,81.27,overcast clouds,13.7796,124.39,Cj's Travellers Inn
269,Napoleon,US,84.24,broken clouds,41.3923,-84.1252,Holiday Inn & Suites
270,Lorengau,PG,81.84,scattered clouds,-2.0226,147.2712,Lorengau Harbourside Hotel
271,Kilindoni,TZ,74.75,clear sky,-7.9139,39.6668,Bustani B&B
272,Sabang,ID,83.01,overcast clouds,5.8933,95.3214,Hotel Citra
274,Sao Geraldo Do Araguaia,BR,84.58,scattered clouds,-6.4006,-48.555,Hotel Por do Sol
276,San Quintin,MX,73.76,few clouds,30.4833,-115.95,Don Eddie's / Hotel - Restaurant
280,Naze,JP,83.32,overcast clouds,28.3667,129.4833,Shishime Hotel
282,Riberalta,BO,71.8,overcast clouds,-10.9833,-66.1,Hotel Colonial
283,Maceio,BR,76.44,scattered clouds,-9.6658,-35.7353,Hotel Ponta Verde Maceió
285,Lompoc,US,74.84,mist,34.6391,-120.4579,"Holiday Inn Express Lompoc, an IHG Hotel"
288,Alta Floresta,BR,83.82,broken clouds,-9.8756,-56.0861,Floresta Amazonica Hotel
290,Palmer,US,89.2,few clouds,42.1584,-72.3287,Wedgewood Motel
293,Todos Santos,MX,85.05,broken clouds,23.45,-110.2167,Hotel California Todos Santos
294,Turbat,PK,82.33,overcast clouds,26.0023,63.044,Mubashar Quarters
295,Lejanias,CO,72.48,overcast clouds,3.5251,-74.0216,Hotel Campestre La Contea
297,Suzhou,CN,87.46,overcast clouds,31.3114,120.6181,Holiday Inn Jasmine Suzhou
298,Acarau,BR,77.86,scattered clouds,-2.8856,-40.12,castelo pizzaria
299,Mangrol,IN,80.29,overcast clouds,21.1167,70.1167,Hotel The Royal Honours
300,Moundou,TD,71.69,broken clouds,8.5667,16.0833,Planete Life
301,Eirunepe,BR,72.46,broken clouds,-6.6603,-69.8736,Hotel novo Acre & Comercial Aguiar
302,Saint Anthony,US,73.0,clear sky,45.0205,-93.218,Holiday Inn Express Roseville-St. Paul
303,Kikwit,CD,81.91,scattered clouds,-5.041,18.8162,HOTEL PLACE YALABA
304,Kloulklubed,PW,75.7,scattered clouds,7.0419,134.2556,Storyboard Beach Resort
307,Seoul,KR,79.99,mist,37.5683,126.9778,LOTTE HOTEL SEOUL
309,Petit Goave,HT,84.31,scattered clouds,18.4314,-72.8669,Imperial Suite International
311,Paragominas,BR,79.47,overcast clouds,-2.9667,-47.4833,INOVA
313,Sao Filipe,CV,77.77,overcast clouds,14.8961,-24.4956,Hotel Xaguate
314,Bac Lieu,VN,79.7,overcast clouds,9.285,105.7244,Khách sạn Sài Gòn Bạc Liêu
315,Puerto Penasco,MX,85.91,overcast clouds,31.3167,-113.5333,Playa Bonita Resort
317,Cockburn Town,TC,85.96,scattered clouds,21.4612,-71.1419,Osprey Beach Hotel
318,Port-Gentil,GA,75.06,few clouds,-0.7193,8.7815,Fengshui Residence
319,Kudahuvadhoo,MV,80.96,overcast clouds,2.6708,72.8944,Niyama Private Islands Maldives
320,Georgetown,MY,81.9,few clouds,5.4112,100.3354,Cititel Penang
321,Auki,SB,84.22,very heavy rain,-8.7676,160.7034,Auki Motel
323,Safaga,EG,88.29,clear sky,26.7292,33.9365,Lamar Resort Abu Soma
324,Faanui,PF,78.76,overcast clouds,-16.4833,-151.75,Bora-Bora Pearl Beach Resort & Spa
325,Sungai Padi,TH,76.82,overcast clouds,6.0851,101.8766,237บอล&บาส
326,Huilong,CN,83.71,overcast clouds,31.8111,121.655,Hilton Garden Inn Qidong
328,Nizhniy Baskunchak,RU,75.4,overcast clouds,48.2198,46.8311,Arman hotel
330,Abaete,BR,74.55,clear sky,-19.16,-45.4458,Hotel Millenium
331,Chapulhuacan,MX,81.16,broken clouds,21.1667,-98.9,Posada HEIDI
332,Ahmadpur East,PK,82.51,overcast clouds,29.1431,71.2598,Irfan fabrics
333,Piacabucu,BR,71.96,few clouds,-10.4056,-36.4344,Piaçabuçu News
335,Logan,US,84.06,light rain,41.7355,-111.8344,SpringHill Suites by Marriott Logan
340,Touros,BR,76.08,few clouds,-5.1989,-35.4608,INN NEW HORIZON
341,Souillac,MU,71.98,broken clouds,-20.5167,57.5167,Shanti Maurice Resort & Spa
343,Gamba,GA,71.67,scattered clouds,-2.65,10.0,
345,Makakilo City,US,88.12,broken clouds,21.3469,-158.0858,Marriott's Ko Olina Beach Club
346,Chester,US,83.55,clear sky,40.1254,-75.8749,"Holiday Inn Morgantown - Reading Area, an IHG Hotel"
347,Ketchikan,US,73.87,clear sky,55.3422,-131.6461,Snow's Cove Lodge
348,Merauke,ID,76.57,clear sky,-8.4667,140.3333,
349,Gat,IL,77.4,clear sky,31.61,34.7642,OlusHome
351,Murgab,TM,75.07,clear sky,37.4966,61.9714,Wepa Nurlyýew
353,Marsh Harbour,BS,84.67,few clouds,26.5412,-77.0636,Abaco Beach Resort
354,Rabat,MA,71.15,scattered clouds,33.9911,-6.8401,Hôtel Mercure Rabat Sheherazade
356,Iquitos,PE,73.44,shower rain,-3.7481,-73.2472,Cortez Malaga Techy Caroly
358,Bardiyah,LY,79.11,clear sky,31.7561,25.0865,بورتو بردية
359,Hondo,JP,83.82,overcast clouds,32.45,130.2,ホテル河丁
360,Nong Khai,TH,75.29,overcast clouds,17.9167,103.0833,จารุวรรณ วงชัยยา
361,Alofi,NU,73.29,clear sky,-19.0595,-169.9187,Taloa Heights
362,San Juan Del Sur,NI,88.02,few clouds,11.2529,-85.8705,Nuestra Casa
363,Portland,US,89.49,broken clouds,45.5234,-122.6762,Embassy Suites by Hilton Portland Downtown
364,Port Blair,IN,81.88,overcast clouds,11.6667,92.75,"Welcomhotel By ITC Hotels, Bay Island, Port Blair"
365,Komsomolskiy,UZ,72.32,clear sky,40.4272,71.7189,Ikathouse
368,Ambikapur,IN,72.84,light rain,23.1167,83.2,Hotel Birendra Prabha
369,Korla,CN,75.72,clear sky,41.7597,86.1469,Gulisitan Hotel
373,Salinopolis,BR,80.15,broken clouds,-0.6136,-47.3561,Salinas Park Resort Maçarico AP101
374,Bambous Virieux,MU,71.85,broken clouds,-20.3428,57.7575,Casa Tia Villa
375,Corrente,BR,80.15,overcast clouds,-3.7367,-43.3394,Chapadinhense Hotel
377,Nantucket,US,82.51,clear sky,41.2835,-70.0995,Jared Coffin House
380,Soyo,AO,70.09,few clouds,-6.1349,12.3689,Hospedaria ndozi'ame
383,Houma,US,82.0,broken clouds,29.5958,-90.7195,Courtyard by Marriott Houma
385,Ajdabiya,LY,81.14,clear sky,30.7554,20.2263,منزلة الحاج سالم خليفة العيساويه الزواوي
388,Mouzouras,GR,78.8,clear sky,35.5333,24.15,Areti Suites
390,Tautira,PF,77.18,overcast clouds,-17.7333,-149.15,Pension Oaoa
391,Divnomorskoye,RU,71.01,clear sky,44.5011,38.1353,Primorskiy
392,Dores Do Indaia,BR,75.02,few clouds,-19.4633,-45.6017,Hotel Central Dorense
393,Virginia Beach,US,82.42,overcast clouds,36.8529,-75.978,Hilton Virginia Beach Oceanfront
394,Luganville,VU,79.72,scattered clouds,-15.5333,167.1667,The Espiritu Hotel
397,Kenora,CA,76.17,broken clouds,49.8167,-94.4337,Maynard Lake Lodge
399,Raton,US,79.05,clear sky,36.9034,-104.4391,"Holiday Inn Express & Suites Raton, an IHG Hotel"
400,Basco,PH,84.6,clear sky,20.4487,121.9702,Nathaniel's Lodge
401,Filingue,NE,81.55,scattered clouds,14.3521,3.3168,
403,Nara,JP,83.5,overcast clouds,34.6851,135.8049,Guesthouse Nara Komachi
406,Sarangani,PH,82.71,overcast clouds,5.4033,125.4636,JVL Inn and Cafeteria
407,Qui Nhon,VN,78.28,overcast clouds,13.7667,109.2333,Seagull Hotel
409,Oranjestad,AW,85.95,few clouds,12.524,-70.027,Divi Village Golf & Beach Resort
411,Griffith,US,84.13,clear sky,41.5284,-87.4237,Apartment above Depot Bar
412,Sept-Iles,CA,75.2,broken clouds,50.2001,-66.3821,Comfort Inn
413,Trairi,BR,77.79,clear sky,-3.2778,-39.2689,janelas do mar
414,Summerside,CA,75.33,few clouds,46.3959,-63.7876,Summerside Motel & Cottages
417,Deming,US,80.49,clear sky,32.2687,-107.7586,Best Western Deming Southwest Inn
422,Lalgudi,IN,80.92,mist,10.8667,78.8333,Tamash hotel
424,Mahon,ES,72.16,few clouds,39.8885,4.2658,ARTIEM Capri
426,Yidu,CN,77.29,scattered clouds,24.1614,115.1328,Longtan Travel Rest House
428,High Prairie,CA,86.74,broken clouds,55.4334,-116.4858,Royal Star Motor Inn
429,Alpena,US,76.1,overcast clouds,45.0617,-83.4327,Days Inn by Wyndham Alpena
430,Sam Chuk,TH,79.77,overcast clouds,14.7576,100.0899,Samchuk Resort
432,Banjar,ID,72.05,few clouds,-8.19,114.9675,The Hamsa Resort
436,Porto Nacional,BR,86.0,clear sky,-10.7081,-48.4172,Vila Real Hotel
438,Elko,US,81.73,scattered clouds,41.0002,-115.5012,
439,Gunjur,GM,78.87,light rain,13.2019,-16.7339,Jallo Kurundingoto Eco Tourist Camp
441,Poum,NC,71.38,overcast clouds,-20.2333,164.0167,
442,Avera,US,77.05,overcast clouds,33.194,-82.5271,
443,Marathon,US,72.64,overcast clouds,44.9,-89.7668,
444,Astoria,US,72.43,broken clouds,46.1879,-123.8313,Best Western Astoria Bayfront Hotel
446,Majene,ID,76.84,scattered clouds,-3.5403,118.9707,Kost Putri RABBANI
447,Sidi Ali,DZ,75.88,clear sky,36.0998,0.4206,Khaled
448,Kamaishi,JP,71.1,broken clouds,39.2667,141.8833,Hotel Route Inn Kamaishi
449,Lorinci,HU,74.75,overcast clouds,47.7329,19.6787,Horgásztanya Lőrinci 73
452,Baoning,CN,78.66,broken clouds,25.3378,110.026,
453,Mogadishu,SO,75.83,overcast clouds,2.0371,45.3438,Hotel Juba
456,Dickinson,US,82.94,broken clouds,29.4608,-95.0513,Hampton Inn & Suites Houston/League City
459,Halifax,CA,74.44,broken clouds,44.6453,-63.5724,Hotel Halifax
461,Bengkulu,ID,75.0,overcast clouds,-3.8004,102.2655,Grage Hotel Bengkulu
462,Tukums,LV,70.95,overcast clouds,56.9669,23.1553,Tukuma Ledus Halle
464,Dalbandin,PK,83.68,overcast clouds,28.8947,64.4101,Sanjrani House
467,Bontang,ID,77.54,light rain,0.1333,117.5,KOPKAR Hotel Bintang Sintuk
468,Vieux-Habitants,GP,81.97,clear sky,16.0589,-61.7659,Habitation GETZ
469,Evans,US,77.38,mist,33.5337,-82.1307,Evans hide out
471,Gizo,SB,83.03,broken clouds,-8.103,156.8419,Imagination Island
475,Lufkin,US,86.32,broken clouds,31.3382,-94.7291,Courtyard by Marriott Lufkin
476,Road Town,VG,84.29,scattered clouds,18.4167,-64.6167,"ZINGARA 76ft Catamaran, full crew-all included"
477,Kieta,PG,83.7,clear sky,-6.2167,155.6333,Uruna Bay Retreat
480,Shimoda,JP,77.11,overcast clouds,34.6667,138.95,Shimoda Tokyu Hotel
485,Birao,CF,71.69,overcast clouds,10.2849,22.7882,
486,Tadine,NC,71.28,overcast clouds,-21.55,167.8833,
488,Keti Bandar,PK,80.87,overcast clouds,24.1447,67.4497,Haji laloo memon house
489,Khipro,PK,79.81,overcast clouds,25.8285,69.3772,Wali M Dars Hottle
490,Huron,US,81.66,broken clouds,41.1501,-82.5499,Meadow Brook Mobile Estates
491,Salvador,SV,83.05,broken clouds,13.8333,-88.9167,Chico's Ranch
493,Manggar,ID,80.87,overcast clouds,-2.8833,108.2667,Guest Hotel
494,Sakaiminato,JP,84.18,broken clouds,35.55,133.2333,Italian pasley
495,Jining,CN,73.92,broken clouds,35.405,116.5814,Yunhe Star Hotel
496,Socorro,US,87.1,overcast clouds,31.6546,-106.3033,guarderia imss papalote
498,North Myrtle Beach,US,77.38,mist,33.816,-78.68,Avista Resort
501,Fort Nelson,CA,81.99,scattered clouds,58.8053,-122.7002,The Fort Nelson Hotel
504,Sanandaj,IR,78.82,clear sky,35.3144,46.9923,Sanandaj Tourist Hotel
506,Miri,MY,75.34,few clouds,4.4148,114.0089,"Mega Hotel, Miri"
509,Baculin,PH,80.02,overcast clouds,7.4525,126.5842,Baculin Cove Beach Resort
511,Lardos,GR,85.82,clear sky,36.0942,28.0157,Lindos Princess Beach Hotel
512,Meulaboh,ID,75.69,overcast clouds,4.1363,96.1285,Kost Pria
513,Natal,BR,79.02,clear sky,-5.795,-35.2094,Villa Park Hotel | Natal
517,Santa Maria Da Vitoria,BR,75.65,clear sky,-13.3947,-44.1886,Pousada Rio Current
518,Whitehorse,CA,70.11,broken clouds,60.7161,-135.0538,The Sternwheeler Hotel & Conference Centre
519,Barnala,IN,82.9,broken clouds,30.3833,75.55,STARiHOTEL Barnala
521,The Pas,CA,80.62,clear sky,53.8251,-101.2541,Wescana Inn
525,Tahta,EG,88.99,clear sky,26.7693,31.5021,فندق الزيات
526,Nago,JP,85.05,overcast clouds,26.5881,127.9761,Hotel Yugaf Inn Okinawa
528,Hoquiam,US,71.96,broken clouds,46.9809,-123.8893,Econo Lodge Inn & Suites
529,Bodden Town,KY,86.99,few clouds,19.2833,-81.25,Will T Place
534,Kavaratti,IN,81.19,overcast clouds,10.5669,72.642,Green leaf
535,Ferkessedougou,CI,73.4,overcast clouds,9.6,-5.2,Hotel Chateau
536,Biak,ID,75.6,overcast clouds,-0.9131,122.8766,Penginapan Kim
537,Ixtapa,MX,84.22,scattered clouds,20.7,-105.2,hotel la terminal
538,Tura,IN,74.53,scattered clouds,25.5198,90.2201,Hotel RIKMAN Continental
540,Manfredonia,IT,74.62,overcast clouds,41.6259,15.9094,Regiohotel Manfredi
543,Pendleton,US,90.0,broken clouds,45.6721,-118.7886,Americas Best Value Inn Pendleton
545,Ozu,JP,85.17,overcast clouds,33.5,132.55,HOTEL FOREST
546,Gondanglegi,ID,72.93,scattered clouds,-7.7479,112.0132,pondok pesantren mamba'ul 'ulum selo rejo
547,Liepaja,LV,75.18,clear sky,56.5419,21.0367,Promenade Hotel
549,Amol,IR,73.27,clear sky,36.4696,52.3507,Shahr Hotel
550,Maiduguri,NG,72.23,moderate rain,11.8464,13.1603,Kagel Mari Police Station
551,Ranong,TH,78.91,light rain,9.9658,98.6348,Numsai Khaosuay Resort Ranong
553,Celestun,MX,83.37,overcast clouds,20.8667,-90.4,Posada Lilia
555,Marinette,US,77.05,scattered clouds,45.1,-87.6307,AmericInn by Wyndham Menominee
556,Chippewa Falls,US,76.84,broken clouds,44.9369,-91.3929,AmericInn by Wyndham Chippewa Falls
559,Cairns,AU,72.07,clear sky,-16.9167,145.7667,Mantra Trilogy Cairns
561,Pontian Kecil,MY,75.52,broken clouds,1.4801,103.3899,SUNFLOWER EXPRESS HOTEL
562,Carutapera,BR,79.84,broken clouds,-1.195,-46.02,Lidera
565,Davila,PH,75.18,broken clouds,18.4726,120.5763,Blue Ridge Beach Resort
567,Mumford,GH,73.96,overcast clouds,5.2618,-0.759,Spanish Villa
570,Yarmouth,US,80.15,clear sky,41.7057,-70.2286,Blue Rock Resort
572,Makat,KZ,71.73,overcast clouds,47.6469,53.3463,Umit
573,Shenjiamen,CN,81.01,overcast clouds,29.9576,122.298,Jinjiang Inn Zhoushan Putuo Shenjiamen
574,Grand-Santi,GF,78.53,overcast clouds,4.25,-54.3833,Hotel La Villa Couacou
576,Wajir,KE,75.09,broken clouds,1.7471,40.0573,Mahatallah Hotel
580,Kandrian,PG,78.67,moderate rain,-6.2167,149.55,Kandrian Station
581,Paracuru,BR,79.11,few clouds,-3.41,-39.0306,Hotel Vento Brasil
582,Telimele,GN,70.54,light rain,10.9167,-13.3333,
583,Coban,GT,78.58,scattered clouds,15.4833,-90.3667,Casa Duranta
584,Perivolion,GR,80.65,clear sky,39.4206,20.0147,Santa Maria
585,Tabou,CI,75.25,light rain,4.423,-7.3528,hotêl doufoulougou
587,Wattegama,LK,75.04,overcast clouds,6.7989,81.4808,
590,Da Nang,VN,78.78,light rain,16.0678,108.2208,Grand Mercure Danang
591,Banikoara,BJ,72.14,light rain,11.2985,2.4386,Hôtel de l'UCom CVPC
594,Aracuai,BR,75.97,clear sky,-16.8497,-42.0703,Village das Minas Hotel
596,Abdanan,IR,85.95,clear sky,32.9926,47.4198,خدمات موبایل میرزایی
597,Mana,GF,80.38,scattered clouds,5.6592,-53.7767,LE SAMANA
598,Quatre Cocos,MU,71.71,light rain,-20.2078,57.7625,Sunrise Attitude Hotel
601,Quartucciu,IT,78.03,clear sky,39.2519,9.1794,Best Western Hotel Residence Italia
603,Cuencame,MX,71.44,overcast clouds,24.8711,-103.6964,HOTEL RICOME
604,San-Pedro,CI,75.31,overcast clouds,4.7485,-6.6363,Hotel Maria
606,Villa Del Rosario,CO,86.38,few clouds,7.8339,-72.4742,Hotel Villas de San Diego
611,Matagami,CA,73.51,overcast clouds,49.7502,-77.6328,Motel Le Caribou
612,Punta Umbria,ES,77.13,clear sky,37.1821,-6.9661,Barceló Punta Umbría Beach Resort
618,Itupiranga,BR,82.72,overcast clouds,-5.1347,-49.3267,Hotel Panorama
622,Smithers,CA,82.72,clear sky,54.7804,-127.1743,"Prestige Hudson Bay Lodge, Premier Collection"
625,Wenzhou,CN,84.97,overcast clouds,27.9994,120.6668,温州喜来登酒店
626,Kalmunai,LK,78.91,overcast clouds,7.4167,81.8167,VS Villa
628,Hay River,CA,80.56,broken clouds,60.8156,-115.7999,Ptarmigan Inn
631,Surt,LY,81.99,clear sky,31.2089,16.5887,الهادي ابوشعاله سرت
633,Itoman,JP,86.02,broken clouds,26.1247,127.6694,Southern Beach Hotel & Resort Okinawa
634,Cadillac,US,78.8,clear sky,44.2519,-85.4012,"Holiday Inn Express & Suites Cadillac, an IHG Hotel"
636,Kopanskaya,RU,73.6,overcast clouds,46.2779,38.4795,
639,Shangqiu,CN,74.19,broken clouds,34.45,115.65,Thank Inn Chain Hotel henan shangqiu railway station ticket shop
641,Monywa,MM,79.43,scattered clouds,22.1167,95.1333,Monywa Hotel
642,Morgan City,US,87.08,scattered clouds,29.6994,-91.2068,Hampton Inn & Suites Morgan City
644,Warren,US,83.91,broken clouds,39.4334,-84.1666,The Golden Lamb Restaurant & Hotel
646,Dullewala,PK,85.53,few clouds,31.8359,71.4362,Sajid fruit shop
647,Hambantota,LK,78.48,overcast clouds,6.1241,81.1185,Bungalow 63
648,Silistea,RO,77.14,clear sky,44.3833,25.35,
650,Conde,BR,74.66,clear sky,-7.2597,-34.9075,Pousada Beija Flor
654,Alice Town,BS,85.55,scattered clouds,25.7167,-79.3,Bimini Big Game Club Resort & Marina
655,Marsa Matruh,EG,80.8,clear sky,31.3525,27.2453,Beau Site
658,Alyangula,AU,73.87,clear sky,-13.8483,136.4192,Groote Eylandt Lodge
659,Boquira,BR,74.77,clear sky,-12.8231,-42.7306,Cristal Palace Hotel
664,French Harbor,HN,87.8,few clouds,16.35,-86.4333,"Fantasy Island Beach Resort, Dive & Marina"
665,Jizan,SA,85.14,scattered clouds,17.3333,42.6667,شهدان. ابوالحجر
667,Vanimo,PG,79.88,overcast clouds,-2.6741,141.3028,Vahmoneh Lodge Vanimo
668,Pedasi,PA,81.07,overcast clouds,7.5333,-80.0333,Hotel Casa de Campo Pedasí
669,Gillette,US,77.04,clear sky,44.2911,-105.5022,National 9 Inn - Gillette WY
671,Mae Sai,TH,71.17,overcast clouds,20.4335,99.8762,Piyaporn Hill Paradise Hotel
673,Bonthe,SL,76.57,light rain,7.5264,-12.505,Bonthe Holiday Village
675,Umm Kaddadah,SD,78.21,broken clouds,13.6017,26.6876,
677,Westport,US,84.49,broken clouds,41.1415,-73.3579,The Westport Inn
678,Manadhoo,MV,81.39,overcast clouds,5.7667,73.3833,Bon Abri maldives
